[
  [
    { "lat": 48.779296875, "lon": 2.28515625, "country": "FR", "city": "Paris", "count": 5 },
    { "lat": 48.779296875, "lon": 2.28515625, "country": "FR", "city": "", "count": 5 },
    { "lat": 46.494140625, "lon": -0.87890625, "country": "FR", "city": "Fontenay-le-Comte", "count": 1 },
    { "lat": 51.591796875, "lon": -0.17578125, "country": "GB", "city": "London", "count": 1 },
    { "lat": 53.349609375, "lon": -6.15234375, "country": "IE", "city": "Dublin", "count": 1 },
    { "lat": 45.087890625, "lon": 4.04296875, "country": "FR", "city": "Le Puy-en-Velay", "count": 1 },
    { "lat": 48.955078125, "lon": 2.63671875, "country": "FR", "city": "Bondy", "count": 1 },
    { "lat": 48.779296875, "lon": 2.28515625, "country": "FR", "city": "Cachan", "count": 2 },
    { "lat": 47.197265625, "lon": -1.58203125, "country": "FR", "city": "Nantes", "count": 2 },
    { "lat": 48.076171875, "lon": -1.93359375, "country": "FR", "city": "Le Verger", "count": 1 },
    { "lat": 43.681640625, "lon": -79.27734375, "country": "CA", "city": "", "count": 1 }
  ],
  [
    { "lat": 48.779296875, "lon": 2.28515625, "country": "FR", "city": "Paris", "count": 5 },
    { "lat": 48.779296875, "lon": 2.28515625, "country": "FR", "city": "", "count": 5 },
    { "lat": 46.494140625, "lon": -0.87890625, "country": "FR", "city": "Fontenay-le-Comte", "count": 1 },
    { "lat": 51.591796875, "lon": -0.17578125, "country": "GB", "city": "London", "count": 1 },
    { "lat": 53.349609375, "lon": -6.15234375, "country": "IE", "city": "Dublin", "count": 1 },
    { "lat": 45.087890625, "lon": 4.04296875, "country": "FR", "city": "Le Puy-en-Velay", "count": 1 },
    { "lat": 48.779296875, "lon": 2.28515625, "country": "FR", "city": "Cachan", "count": 1 },
    { "lat": 47.197265625, "lon": -1.58203125, "country": "FR", "city": "Nantes", "count": 2 },
    { "lat": 48.076171875, "lon": -1.93359375, "country": "FR", "city": "Le Verger", "count": 1 }
  ],
  [
    { "lat": 50.712890625, "lon": 3.33984375, "country": "FR", "city": "Roubaix", "count": 1 },
    { "lat": 48.779296875, "lon": 2.28515625, "country": "FR", "city": "Paris", "count": 5 },
    { "lat": 37.353515625, "lon": -6.15234375, "country": "ES", "city": "Seville", "count": 1 },
    { "lat": 35.595703125, "lon": 139.74609375, "country": "JP", "city": "Minamiaoyama", "count": 1 },
    { "lat": 45.087890625, "lon": 5.80078125, "country": "FR", "city": "Grenoble", "count": 1 },
    { "lat": 48.779296875, "lon": 2.28515625, "country": "FR", "city": "", "count": 3 },
    { "lat": 48.779296875, "lon": 2.28515625, "country": "FR", "city": "Cachan", "count": 1 },
    { "lat": 48.955078125, "lon": 2.28515625, "country": "FR", "city": "Houilles", "count": 1 }
  ],
  [
    { "lat": 48.779296875, "lon": 2.28515625, "country": "FR", "city": "Paris", "count": 4 },
    { "lat": 45.087890625, "lon": 5.80078125, "country": "FR", "city": "Grenoble", "count": 1 },
    { "lat": 48.779296875, "lon": 2.28515625, "country": "FR", "city": "", "count": 2 },
    { "lat": 46.494140625, "lon": -0.87890625, "country": "FR", "city": "Fontenay-le-Comte", "count": 1 },
    { "lat": 48.779296875, "lon": 2.28515625, "country": "FR", "city": "Cachan", "count": 1 },
    { "lat": 47.197265625, "lon": -1.58203125, "country": "FR", "city": "Nantes", "count": 3 },
    { "lat": 43.681640625, "lon": -79.27734375, "country": "CA", "city": "", "count": 2 }
  ],
  [
    { "lat": 44.912109375, "lon": -0.52734375, "country": "FR", "city": "Lormont", "count": 1 },
    { "lat": 48.779296875, "lon": 2.28515625, "country": "FR", "city": "Paris", "count": 4 },
    { "lat": 48.779296875, "lon": 2.28515625, "country": "FR", "city": "", "count": 2 },
    { "lat": 48.779296875, "lon": 2.28515625, "country": "FR", "city": "Cachan", "count": 3 },
    { "lat": 47.197265625, "lon": -1.58203125, "country": "FR", "city": "Nantes", "count": 2 },
    { "lat": 43.681640625, "lon": -79.27734375, "country": "CA", "city": "", "count": 1 },
    { "lat": 44.912109375, "lon": -0.52734375, "country": "FR", "city": "Mérignac", "count": 1 }
  ],
  [
    { "lat": 50.712890625, "lon": 3.33984375, "country": "FR", "city": "Roubaix", "count": 1 },
    { "lat": 48.779296875, "lon": 2.28515625, "country": "FR", "city": "Paris", "count": 4 },
    { "lat": 37.353515625, "lon": -6.15234375, "country": "ES", "city": "Seville", "count": 1 },
    { "lat": 46.845703125, "lon": -0.52734375, "country": "FR", "city": "Bressuire", "count": 1 },
    { "lat": 48.955078125, "lon": 2.28515625, "country": "FR", "city": "Suresnes", "count": 1 },
    { "lat": 43.681640625, "lon": 7.20703125, "country": "FR", "city": "Villeneuve-Loubet", "count": 1 },
    { "lat": 36.650390625, "lon": -4.39453125, "country": "ES", "city": "", "count": 1 },
    { "lat": 48.779296875, "lon": 2.28515625, "country": "FR", "city": "Cachan", "count": 1 },
    { "lat": 47.197265625, "lon": -1.58203125, "country": "FR", "city": "Nantes", "count": 2 },
    { "lat": 43.681640625, "lon": -79.27734375, "country": "CA", "city": "", "count": 3 }
  ],
  [
    { "lat": 50.712890625, "lon": 3.33984375, "country": "FR", "city": "Roubaix", "count": 2 },
    { "lat": 48.779296875, "lon": 2.28515625, "country": "FR", "city": "Paris", "count": 5 },
    { "lat": 48.076171875, "lon": -1.58203125, "country": "FR", "city": "Rennes", "count": 1 },
    { "lat": 25.048828125, "lon": 56.42578125, "country": "AE", "city": "Kalba", "count": 1 },
    { "lat": 48.779296875, "lon": 2.28515625, "country": "FR", "city": "", "count": 4 },
    { "lat": 48.779296875, "lon": 2.28515625, "country": "FR", "city": "Cachan", "count": 4 },
    { "lat": 47.197265625, "lon": -1.58203125, "country": "FR", "city": "Nantes", "count": 2 }
  ],
  [
    { "lat": 51.591796875, "lon": -1.93359375, "country": "GB", "city": "Swindon", "count": 1 },
    { "lat": 44.912109375, "lon": -0.52734375, "country": "FR", "city": "Lormont", "count": 1 },
    { "lat": 48.779296875, "lon": 2.28515625, "country": "FR", "city": "Paris", "count": 4 },
    { "lat": 48.779296875, "lon": 2.28515625, "country": "FR", "city": "", "count": 3 },
    { "lat": 46.494140625, "lon": -0.87890625, "country": "FR", "city": "Fontenay-le-Comte", "count": 1 },
    { "lat": 48.779296875, "lon": 2.28515625, "country": "FR", "city": "Cachan", "count": 6 },
    { "lat": 45.791015625, "lon": 4.74609375, "country": "FR", "city": "Lyon", "count": 1 },
    { "lat": 47.197265625, "lon": -1.58203125, "country": "FR", "city": "Nantes", "count": 4 },
    { "lat": 48.955078125, "lon": 2.28515625, "country": "FR", "city": "Houilles", "count": 1 },
    { "lat": 43.681640625, "lon": -79.27734375, "country": "CA", "city": "", "count": 2 }
  ],
  [
    { "lat": 50.712890625, "lon": 3.33984375, "country": "FR", "city": "Roubaix", "count": 2 },
    { "lat": 48.779296875, "lon": 2.28515625, "country": "FR", "city": "Paris", "count": 5 },
    { "lat": 48.076171875, "lon": -1.58203125, "country": "FR", "city": "Rennes", "count": 1 },
    { "lat": 37.353515625, "lon": -6.15234375, "country": "ES", "city": "Seville", "count": 2 },
    { "lat": 48.779296875, "lon": 2.28515625, "country": "FR", "city": "", "count": 3 },
    { "lat": 46.494140625, "lon": -0.87890625, "country": "FR", "city": "Fontenay-le-Comte", "count": 1 },
    { "lat": 38.583984375, "lon": -77.16796875, "country": "US", "city": "", "count": 2 },
    { "lat": 48.779296875, "lon": 2.28515625, "country": "FR", "city": "Cachan", "count": 2 },
    { "lat": 47.197265625, "lon": -1.58203125, "country": "FR", "city": "Nantes", "count": 2 },
    { "lat": 50.712890625, "lon": 2.98828125, "country": "FR", "city": "Lille", "count": 2 }
  ],
  [
    { "lat": 50.712890625, "lon": 3.33984375, "country": "FR", "city": "Roubaix", "count": 1 },
    { "lat": 48.779296875, "lon": 2.28515625, "country": "FR", "city": "Paris", "count": 5 },
    { "lat": 48.955078125, "lon": 2.28515625, "country": "FR", "city": "Levallois-Perret", "count": 1 },
    { "lat": 48.779296875, "lon": 2.28515625, "country": "FR", "city": "", "count": 4 },
    { "lat": 48.779296875, "lon": 2.28515625, "country": "FR", "city": "Cachan", "count": 3 },
    { "lat": 47.197265625, "lon": -1.58203125, "country": "FR", "city": "Nantes", "count": 4 }
  ],
  [
    { "lat": 48.779296875, "lon": 2.28515625, "country": "FR", "city": "Paris", "count": 5 },
    { "lat": 37.353515625, "lon": -6.15234375, "country": "ES", "city": "Seville", "count": 2 },
    { "lat": 48.779296875, "lon": 2.28515625, "country": "FR", "city": "", "count": 1 },
    { "lat": 43.505859375, "lon": 6.85546875, "country": "FR", "city": "Cannes", "count": 1 },
    { "lat": 46.494140625, "lon": -0.87890625, "country": "FR", "city": "Fontenay-le-Comte", "count": 1 },
    { "lat": 12.919921875, "lon": 77.51953125, "country": "IN", "city": "Bengaluru", "count": 1 },
    { "lat": 48.779296875, "lon": 2.28515625, "country": "FR", "city": "Cachan", "count": 1 },
    { "lat": 47.197265625, "lon": -1.58203125, "country": "FR", "city": "Nantes", "count": 4 }
  ],
  [
    { "lat": 48.779296875, "lon": 2.28515625, "country": "FR", "city": "Paris", "count": 4 },
    { "lat": 49.482421875, "lon": 6.15234375, "country": "LU", "city": "Esch-sur-Alzette", "count": 1 },
    { "lat": 37.353515625, "lon": -6.15234375, "country": "ES", "city": "Seville", "count": 1 },
    { "lat": 48.779296875, "lon": 2.28515625, "country": "FR", "city": "", "count": 3 },
    { "lat": 53.349609375, "lon": -6.15234375, "country": "IE", "city": "Dublin", "count": 1 },
    { "lat": 48.779296875, "lon": 2.28515625, "country": "FR", "city": "Cachan", "count": 1 },
    { "lat": 47.197265625, "lon": -1.58203125, "country": "FR", "city": "Nantes", "count": 2 }
  ],
  [
    { "lat": 47.021484375, "lon": 7.91015625, "country": "", "city": "", "count": 1 },
    { "lat": 48.779296875, "lon": 2.28515625, "country": "FR", "city": "Paris", "count": 3 },
    { "lat": 44.912109375, "lon": -0.52734375, "country": "FR", "city": "Lormont", "count": 1 },
    { "lat": 48.779296875, "lon": 2.28515625, "country": "FR", "city": "", "count": 4 },
    { "lat": 46.494140625, "lon": -0.87890625, "country": "FR", "city": "Fontenay-le-Comte", "count": 1 },
    { "lat": 51.591796875, "lon": -0.17578125, "country": "GB", "city": "London", "count": 1 },
    { "lat": 48.779296875, "lon": 2.28515625, "country": "FR", "city": "Cachan", "count": 3 },
    { "lat": 47.197265625, "lon": -1.58203125, "country": "FR", "city": "Nantes", "count": 2 },
    { "lat": 43.681640625, "lon": -79.27734375, "country": "CA", "city": "", "count": 1 }
  ],
  [
    { "lat": 48.779296875, "lon": 2.28515625, "country": "FR", "city": "Paris", "count": 2 },
    { "lat": 37.353515625, "lon": -6.15234375, "country": "ES", "city": "Seville", "count": 1 },
    { "lat": 48.779296875, "lon": 2.28515625, "country": "FR", "city": "", "count": 1 },
    { "lat": 43.505859375, "lon": 6.85546875, "country": "FR", "city": "Cannes", "count": 1 },
    { "lat": 43.681640625, "lon": 7.20703125, "country": "FR", "city": "Villeneuve-Loubet", "count": 2 },
    { "lat": 47.197265625, "lon": -1.58203125, "country": "FR", "city": "Nantes", "count": 1 },
    { "lat": 45.966796875, "lon": 5.44921875, "country": "FR", "city": "Ambérieu-en-Bugey", "count": 1 }
  ],
  [
    { "lat": 48.779296875, "lon": 2.28515625, "country": "FR", "city": "Paris", "count": 5 },
    { "lat": 48.076171875, "lon": -1.58203125, "country": "FR", "city": "Rennes", "count": 1 },
    { "lat": 37.353515625, "lon": -6.15234375, "country": "ES", "city": "Seville", "count": 1 },
    { "lat": 48.779296875, "lon": 2.28515625, "country": "FR", "city": "", "count": 6 },
    { "lat": 25.224609375, "lon": 55.37109375, "country": "AE", "city": "Dubai", "count": 1 },
    { "lat": 43.681640625, "lon": 7.20703125, "country": "FR", "city": "Villeneuve-Loubet", "count": 1 },
    { "lat": 50.712890625, "lon": 2.98828125, "country": "FR", "city": "Lambersart", "count": 1 },
    { "lat": 48.779296875, "lon": 2.28515625, "country": "FR", "city": "Cachan", "count": 4 },
    { "lat": 47.197265625, "lon": -1.58203125, "country": "FR", "city": "Nantes", "count": 3 }
  ],
  [
    { "lat": 48.779296875, "lon": 2.28515625, "country": "FR", "city": "Paris", "count": 4 },
    { "lat": 35.595703125, "lon": 139.74609375, "country": "JP", "city": "Minamiaoyama", "count": 1 },
    { "lat": 48.779296875, "lon": 2.28515625, "country": "FR", "city": "", "count": 3 },
    { "lat": 25.224609375, "lon": 55.37109375, "country": "AE", "city": "Dubai", "count": 1 },
    { "lat": 43.681640625, "lon": 1.58203125, "country": "FR", "city": "Toulouse", "count": 1 },
    { "lat": 48.779296875, "lon": 2.28515625, "country": "FR", "city": "Cachan", "count": 1 },
    { "lat": 47.197265625, "lon": -1.58203125, "country": "FR", "city": "Nantes", "count": 3 },
    { "lat": 43.681640625, "lon": -79.27734375, "country": "CA", "city": "", "count": 1 },
    { "lat": 46.318359375, "lon": -0.52734375, "country": "FR", "city": "Niort", "count": 1 }
  ],
  [
    { "lat": 43.681640625, "lon": 7.20703125, "country": "FR", "city": "Biot", "count": 1 },
    { "lat": 48.779296875, "lon": 2.28515625, "country": "FR", "city": "Paris", "count": 2 },
    { "lat": 48.779296875, "lon": 2.28515625, "country": "FR", "city": "", "count": 1 },
    { "lat": 43.505859375, "lon": 6.85546875, "country": "FR", "city": "Cannes", "count": 1 },
    { "lat": 43.681640625, "lon": 7.20703125, "country": "FR", "city": "Villeneuve-Loubet", "count": 1 },
    { "lat": 48.779296875, "lon": 2.28515625, "country": "FR", "city": "Cachan", "count": 2 },
    { "lat": 35.771484375, "lon": 139.74609375, "country": "JP", "city": "Tokyo", "count": 1 },
    { "lat": 47.197265625, "lon": -1.58203125, "country": "FR", "city": "Nantes", "count": 1 },
    { "lat": 43.681640625, "lon": -79.27734375, "country": "CA", "city": "", "count": 1 }
  ],
  [
    { "lat": 48.779296875, "lon": 2.28515625, "country": "FR", "city": "Paris", "count": 3 },
    { "lat": 48.076171875, "lon": -1.58203125, "country": "FR", "city": "Rennes", "count": 1 },
    { "lat": 37.353515625, "lon": -6.15234375, "country": "ES", "city": "Seville", "count": 1 },
    { "lat": 48.779296875, "lon": 2.28515625, "country": "FR", "city": "", "count": 5 },
    { "lat": 56.337890625, "lon": 44.12109375, "country": "RU", "city": "Nizhniy Novgorod", "count": 1 },
    { "lat": 48.427734375, "lon": -4.39453125, "country": "FR", "city": "Brest", "count": 1 },
    { "lat": 48.779296875, "lon": 2.28515625, "country": "FR", "city": "Cachan", "count": 4 }
  ],
  [
    { "lat": 48.779296875, "lon": 2.28515625, "country": "FR", "city": "Paris", "count": 3 },
    { "lat": 6.416015625, "lon": 3.33984375, "country": "NG", "city": "Lagos", "count": 1 },
    { "lat": 37.353515625, "lon": -6.15234375, "country": "ES", "city": "Seville", "count": 1 },
    { "lat": 46.845703125, "lon": -0.52734375, "country": "FR", "city": "Bressuire", "count": 1 },
    { "lat": 51.240234375, "lon": 9.31640625, "country": "DE", "city": "", "count": 1 },
    { "lat": 48.779296875, "lon": 2.28515625, "country": "FR", "city": "", "count": 2 },
    { "lat": 46.494140625, "lon": -0.87890625, "country": "FR", "city": "Fontenay-le-Comte", "count": 1 },
    { "lat": 43.681640625, "lon": 7.20703125, "country": "FR", "city": "Villeneuve-Loubet", "count": 1 },
    { "lat": 53.349609375, "lon": -6.15234375, "country": "IE", "city": "Dublin", "count": 1 },
    { "lat": 48.779296875, "lon": 2.28515625, "country": "FR", "city": "Cachan", "count": 4 },
    { "lat": 47.197265625, "lon": -1.58203125, "country": "FR", "city": "Nantes", "count": 4 }
  ],
  [
    { "lat": 48.779296875, "lon": 2.28515625, "country": "FR", "city": "Paris", "count": 6 },
    { "lat": 48.779296875, "lon": 2.28515625, "country": "FR", "city": "", "count": 3 },
    { "lat": 43.505859375, "lon": 6.85546875, "country": "FR", "city": "Cannes", "count": 1 },
    { "lat": 46.494140625, "lon": -0.87890625, "country": "FR", "city": "Fontenay-le-Comte", "count": 1 },
    { "lat": 48.779296875, "lon": 2.28515625, "country": "FR", "city": "Cachan", "count": 1 },
    { "lat": 43.681640625, "lon": -79.27734375, "country": "CA", "city": "", "count": 1 }
  ],
  [
    { "lat": 48.779296875, "lon": 2.28515625, "country": "FR", "city": "Paris", "count": 3 },
    { "lat": 48.076171875, "lon": -1.58203125, "country": "FR", "city": "Rennes", "count": 1 },
    { "lat": 48.779296875, "lon": 2.28515625, "country": "FR", "city": "", "count": 4 },
    { "lat": 22.587890625, "lon": 88.41796875, "country": "IN", "city": "Howrah", "count": 1 },
    { "lat": 49.130859375, "lon": -0.52734375, "country": "FR", "city": "Caen", "count": 1 },
    { "lat": 48.779296875, "lon": 2.28515625, "country": "FR", "city": "Cachan", "count": 2 },
    { "lat": 47.197265625, "lon": -1.58203125, "country": "FR", "city": "Nantes", "count": 2 }
  ],
  [
    { "lat": 48.779296875, "lon": 2.28515625, "country": "FR", "city": "Paris", "count": 4 },
    { "lat": 37.353515625, "lon": -6.15234375, "country": "ES", "city": "Seville", "count": 1 },
    { "lat": 46.845703125, "lon": -0.52734375, "country": "FR", "city": "Bressuire", "count": 1 },
    { "lat": 48.779296875, "lon": 2.28515625, "country": "FR", "city": "", "count": 2 },
    {
      "lat": 53.349609375, "lon": -6.15234375, "country": "IE", "city": "Dublin", "count": 1
    }, { "lat": 48.779296875, "lon": 2.28515625, "country": "FR", "city": "Cachan", "count": 1 },
    { "lat": 47.197265625, "lon": -1.58203125, "country": "FR", "city": "Nantes", "count": 2 },
    { "lat": 44.912109375, "lon": -0.52734375, "country": "FR", "city": "Mérignac", "count": 1 }
  ],
  [
    { "lat": 48.779296875, "lon": 2.28515625, "country": "FR", "city": "Paris", "count": 4 },
    { "lat": 6.416015625, "lon": 3.33984375, "country": "NG", "city": "Lagos", "count": 1 },
    { "lat": 48.779296875, "lon": 2.28515625, "country": "FR", "city": "", "count": 2 },
    { "lat": 43.505859375, "lon": 6.85546875, "country": "FR", "city": "Cannes", "count": 1 },
    { "lat": 46.494140625, "lon": -0.87890625, "country": "FR", "city": "Fontenay-le-Comte", "count": 1 },
    { "lat": 48.779296875, "lon": 2.28515625, "country": "FR", "city": "Cachan", "count": 1 },
    { "lat": 47.197265625, "lon": -1.58203125, "country": "FR", "city": "Nantes", "count": 3 },
    { "lat": 43.681640625, "lon": -79.27734375, "country": "CA", "city": "", "count": 1 }
  ],
  [
    { "lat": 50.712890625, "lon": 3.33984375, "country": "FR", "city": "Roubaix", "count": 1 },
    { "lat": 48.779296875, "lon": 2.28515625, "country": "FR", "city": "Paris", "count": 3 },
    { "lat": 6.416015625, "lon": 3.33984375, "country": "NG", "city": "Lagos", "count": 3 },
    { "lat": 48.779296875, "lon": 2.28515625, "country": "FR", "city": "", "count": 3 },
    { "lat": 46.494140625, "lon": -0.87890625, "country": "FR", "city": "Fontenay-le-Comte", "count": 2 },
    { "lat": 48.779296875, "lon": 2.28515625, "country": "FR", "city": "Cachan", "count": 2 },
    { "lat": 47.197265625, "lon": -1.58203125, "country": "FR", "city": "Nantes", "count": 2 },
    { "lat": 43.681640625, "lon": -79.27734375, "country": "CA", "city": "", "count": 1 }
  ],
  [
    { "lat": 50.712890625, "lon": 3.33984375, "country": "FR", "city": "Roubaix", "count": 1 },
    { "lat": 48.779296875, "lon": 2.28515625, "country": "FR", "city": "Paris", "count": 3 },
    { "lat": 6.416015625, "lon": 3.33984375, "country": "NG", "city": "Lagos", "count": 3 },
    { "lat": 35.595703125, "lon": 139.74609375, "country": "JP", "city": "Minamiaoyama", "count": 1 },
    { "lat": 48.779296875, "lon": 2.28515625, "country": "FR", "city": "", "count": 3 },
    { "lat": 48.779296875, "lon": 2.28515625, "country": "FR", "city": "Cachan", "count": 2 },
    { "lat": 47.197265625, "lon": -1.58203125, "country": "FR", "city": "Nantes", "count": 1 },
    { "lat": 43.681640625, "lon": -79.27734375, "country": "CA", "city": "", "count": 1 }
  ],
  [
    { "lat": 44.912109375, "lon": -0.52734375, "country": "FR", "city": "Lormont", "count": 1 },
    { "lat": 48.779296875, "lon": 2.28515625, "country": "FR", "city": "Paris", "count": 6 },
    { "lat": 46.845703125, "lon": -0.52734375, "country": "FR", "city": "Bressuire", "count": 1 },
    { "lat": 48.779296875, "lon": 2.28515625, "country": "FR", "city": "Cachan", "count": 3 },
    { "lat": 47.197265625, "lon": -1.58203125, "country": "FR", "city": "Nantes", "count": 3 },
    { "lat": 48.955078125, "lon": 2.28515625, "country": "FR", "city": "Houilles", "count": 1 },
    { "lat": 50.712890625, "lon": 2.98828125, "country": "FR", "city": "Lille", "count": 1 },
    { "lat": 50.712890625, "lon": 3.33984375, "country": "FR", "city": "Roubaix", "count": 1 },
    { "lat": 6.416015625, "lon": 3.33984375, "country": "NG", "city": "Lagos", "count": 3 },
    { "lat": 45.087890625, "lon": 5.80078125, "country": "FR", "city": "Grenoble", "count": 1 },
    { "lat": 39.990234375, "lon": 116.54296875, "country": "CN", "city": "Beijing", "count": 1 },
    { "lat": 43.681640625, "lon": -79.27734375, "country": "CA", "city": "", "count": 2 },
    { "lat": 46.318359375, "lon": -0.52734375, "country": "FR", "city": "Niort", "count": 1 }
  ],
  [
    { "lat": 50.712890625, "lon": 3.33984375, "country": "FR", "city": "Roubaix", "count": 1 },
    { "lat": 43.681640625, "lon": 7.20703125, "country": "FR", "city": "Biot", "count": 1 },
    { "lat": 48.779296875, "lon": 2.28515625, "country": "FR", "city": "Paris", "count": 5 },
    { "lat": 35.595703125, "lon": 139.74609375, "country": "JP", "city": "Minamiaoyama", "count": 1 },
    { "lat": 48.779296875, "lon": 2.28515625, "country": "FR", "city": "", "count": 2 },
    { "lat": 43.505859375, "lon": 6.85546875, "country": "FR", "city": "Cannes", "count": 1 },
    { "lat": 45.791015625, "lon": 4.74609375, "country": "FR", "city": "Lyon", "count": 2 },
    { "lat": 48.779296875, "lon": 2.28515625, "country": "FR", "city": "Cachan", "count": 5 },
    { "lat": 47.197265625, "lon": -1.58203125, "country": "FR", "city": "Nantes", "count": 3 }
  ],
  [
    { "lat": 43.681640625, "lon": 7.20703125, "country": "FR", "city": "Biot", "count": 1 },
    { "lat": 48.779296875, "lon": 2.28515625, "country": "FR", "city": "Paris", "count": 3 },
    { "lat": 37.353515625, "lon": -6.15234375, "country": "ES", "city": "Seville", "count": 1 },
    { "lat": 48.779296875, "lon": 2.28515625, "country": "FR", "city": "", "count": 3 },
    { "lat": 46.494140625, "lon": -0.87890625, "country": "FR", "city": "Fontenay-le-Comte", "count": 1 },
    { "lat": 51.591796875, "lon": -0.17578125, "country": "GB", "city": "London", "count": 1 },
    { "lat": 50.712890625, "lon": 2.98828125, "country": "FR", "city": "Lambersart", "count": 1 },
    { "lat": 48.779296875, "lon": 2.28515625, "country": "FR", "city": "Cachan", "count": 3 },
    { "lat": 40.341796875, "lon": -3.69140625, "country": "ES", "city": "Madrid", "count": 1 },
    { "lat": 47.197265625, "lon": -1.58203125, "country": "FR", "city": "Nantes", "count": 4 },
    { "lat": 43.681640625, "lon": -79.27734375, "country": "CA", "city": "", "count": 1 },
    { "lat": 46.318359375, "lon": -0.52734375, "country": "FR", "city": "Niort", "count": 1 }
  ],
  [
    { "lat": 47.021484375, "lon": 7.91015625, "country": "", "city": "", "count": 2 },
    { "lat": 50.712890625, "lon": 3.33984375, "country": "FR", "city": "Roubaix", "count": 1 },
    { "lat": 48.779296875, "lon": 2.28515625, "country": "FR", "city": "Paris", "count": 7 },
    { "lat": 46.845703125, "lon": -0.52734375, "country": "FR", "city": "Bressuire", "count": 1 },
    { "lat": 48.779296875, "lon": 2.28515625, "country": "FR", "city": "", "count": 4 },
    { "lat": 48.779296875, "lon": 2.28515625, "country": "FR", "city": "Cachan", "count": 1 },
    { "lat": 47.197265625, "lon": -1.58203125, "country": "FR", "city": "Nantes", "count": 3 },
    { "lat": 48.955078125, "lon": 2.28515625, "country": "FR", "city": "Houilles", "count": 1 },
    { "lat": 43.681640625, "lon": -79.27734375, "country": "CA", "city": "", "count": 1 }
  ],
  [
    { "lat": 50.712890625, "lon": 3.33984375, "country": "FR", "city": "Roubaix", "count": 1 },
    { "lat": 48.779296875, "lon": 2.28515625, "country": "FR", "city": "Paris", "count": 4 },
    { "lat": 44.912109375, "lon": -0.52734375, "country": "FR", "city": "Lormont", "count": 1 },
    { "lat": 37.353515625, "lon": -6.15234375, "country": "ES", "city": "Seville", "count": 1 },
    { "lat": 48.779296875, "lon": 2.28515625, "country": "FR", "city": "", "count": 2 },
    { "lat": 43.505859375, "lon": 6.85546875, "country": "FR", "city": "Cannes", "count": 1 },
    { "lat": 46.494140625, "lon": -0.87890625, "country": "FR", "city": "Fontenay-le-Comte", "count": 1 },
    { "lat": 53.349609375, "lon": -6.15234375, "country": "IE", "city": "Dublin", "count": 1 },
    { "lat": 48.779296875, "lon": 2.28515625, "country": "FR", "city": "Cachan", "count": 1 },
    { "lat": 47.197265625, "lon": -1.58203125, "country": "FR", "city": "Nantes", "count": 4 }
  ],
  [
    { "lat": 48.779296875, "lon": 2.28515625, "country": "FR", "city": "Paris", "count": 6 },
    { "lat": 44.912109375, "lon": -0.52734375, "country": "FR", "city": "Lormont", "count": 1 },
    { "lat": 40.869140625, "lon": -74.00390625, "country": "US", "city": "North Bergen", "count": 1 },
    { "lat": 48.955078125, "lon": 2.28515625, "country": "FR", "city": "Suresnes", "count": 1 },
    { "lat": 48.779296875, "lon": 2.28515625, "country": "FR", "city": "", "count": 3 },
    { "lat": 48.779296875, "lon": 2.28515625, "country": "FR", "city": "Cachan", "count": 4 },
    { "lat": 47.197265625, "lon": -1.58203125, "country": "FR", "city": "Nantes", "count": 2 },
    { "lat": 43.681640625, "lon": -79.27734375, "country": "CA", "city": "", "count": 1 }
  ],
  [
    { "lat": 48.779296875, "lon": 2.28515625, "country": "FR", "city": "Paris", "count": 2 },
    { "lat": 46.845703125, "lon": -0.52734375, "country": "FR", "city": "Bressuire", "count": 1 },
    { "lat": -6.240234375, "lon": 106.69921875, "country": "ID", "city": "Jakarta", "count": 1 },
    { "lat": 48.779296875, "lon": 2.28515625, "country": "FR", "city": "", "count": 1 },
    { "lat": 48.427734375, "lon": -4.39453125, "country": "FR", "city": "Brest", "count": 2 },
    { "lat": 48.779296875, "lon": 2.28515625, "country": "FR", "city": "Cachan", "count": 1 },
    { "lat": 47.197265625, "lon": -1.58203125, "country": "FR", "city": "Nantes", "count": 2 },
    { "lat": 48.955078125, "lon": 2.28515625, "country": "FR", "city": "Houilles", "count": 1 },
    { "lat": 50.712890625, "lon": 3.33984375, "country": "FR", "city": "Roubaix", "count": 1 },
    { "lat": 59.853515625, "lon": 30.41015625, "country": "RU", "city": "St Petersburg", "count": 1 },
    { "lat": 35.771484375, "lon": 139.74609375, "country": "JP", "city": "Tokyo", "count": 1 },
    { "lat": 43.681640625, "lon": -79.27734375, "country": "CA", "city": "", "count": 1 },
    { "lat": 44.912109375, "lon": -0.52734375, "country": "FR", "city": "Mérignac", "count": 1 }
  ],
  [
    { "lat": 48.779296875, "lon": 2.28515625, "country": "FR", "city": "Paris", "count": 6 },
    { "lat": 59.326171875, "lon": 18.10546875, "country": "SE", "city": "Stockholm", "count": 1 },
    { "lat": 48.779296875, "lon": 2.28515625, "country": "FR", "city": "", "count": 1 },
    { "lat": 43.505859375, "lon": 6.85546875, "country": "FR", "city": "Cannes", "count": 1 },
    { "lat": 50.712890625, "lon": 3.69140625, "country": "BE", "city": "Ath", "count": 2 },
    { "lat": 48.779296875, "lon": 2.28515625, "country": "FR", "city": "Cachan", "count": 4 },
    { "lat": 47.197265625, "lon": -1.58203125, "country": "FR", "city": "Nantes", "count": 1 },
    { "lat": 43.681640625, "lon": -79.27734375, "country": "CA", "city": "", "count": 1 }
  ],
  [
    { "lat": 44.912109375, "lon": -0.52734375, "country": "FR", "city": "Lormont", "count": 1 },
    { "lat": 48.779296875, "lon": 2.28515625, "country": "FR", "city": "Paris", "count": 4 },
    { "lat": 37.353515625, "lon": -6.15234375, "country": "ES", "city": "Seville", "count": 2 },
    { "lat": -6.240234375, "lon": 106.69921875, "country": "ID", "city": "Jakarta", "count": 2 },
    { "lat": 48.779296875, "lon": 2.28515625, "country": "FR", "city": "", "count": 1 },
    { "lat": 50.712890625, "lon": 3.69140625, "country": "BE", "city": "Ath", "count": 1 },
    { "lat": 48.779296875, "lon": 2.28515625, "country": "FR", "city": "Cachan", "count": 3 },
    { "lat": 47.197265625, "lon": -1.58203125, "country": "FR", "city": "Nantes", "count": 2 },
    { "lat": 48.955078125, "lon": 2.28515625, "country": "FR", "city": "Houilles", "count": 1 },
    { "lat": 50.712890625, "lon": 2.98828125, "country": "FR", "city": "Lille", "count": 1 },
    { "lat": 50.712890625, "lon": 3.33984375, "country": "FR", "city": "Roubaix", "count": 1 },
    { "lat": 40.341796875, "lon": -3.69140625, "country": "ES", "city": "Madrid", "count": 1 },
    { "lat": 43.681640625, "lon": -79.27734375, "country": "CA", "city": "", "count": 2 }
  ],
  [
    { "lat": 47.021484375, "lon": 7.91015625, "country": "", "city": "", "count": 1 },
    { "lat": 48.779296875, "lon": 2.28515625, "country": "FR", "city": "Paris", "count": 5 },
    { "lat": 48.955078125, "lon": 2.28515625, "country": "FR", "city": "Levallois-Perret", "count": 1 },
    { "lat": -6.240234375, "lon": 106.69921875, "country": "ID", "city": "Jakarta", "count": 1 },
    { "lat": 48.779296875, "lon": 2.28515625, "country": "FR", "city": "", "count": 5 },
    { "lat": 43.681640625, "lon": 1.58203125, "country": "FR", "city": "Toulouse", "count": 1 },
    { "lat": 50.712890625, "lon": 3.69140625, "country": "BE", "city": "Ath", "count": 1 },
    { "lat": 48.779296875, "lon": 2.28515625, "country": "FR", "city": "Cachan", "count": 5 },
    { "lat": 47.197265625, "lon": -1.58203125, "country": "FR", "city": "Nantes", "count": 5 }
  ],
  [
    { "lat": 47.021484375, "lon": 7.91015625, "country": "", "city": "", "count": 1 },
    { "lat": 48.779296875, "lon": 2.28515625, "country": "FR", "city": "Paris", "count": 5 },
    { "lat": 6.416015625, "lon": 3.33984375, "country": "NG", "city": "Lagos", "count": 1 },
    { "lat": 49.482421875, "lon": 6.15234375, "country": "LU", "city": "Esch-sur-Alzette", "count": 1 },
    { "lat": 48.779296875, "lon": 2.28515625, "country": "FR", "city": "", "count": 6 },
    { "lat": 48.955078125, "lon": 2.63671875, "country": "FR", "city": "Bondy", "count": 1 },
    { "lat": 48.779296875, "lon": 2.28515625, "country": "FR", "city": "Cachan", "count": 1 },
    { "lat": 47.197265625, "lon": -1.58203125, "country": "FR", "city": "Nantes", "count": 2 },
    { "lat": 48.955078125, "lon": 2.28515625, "country": "FR", "city": "Houilles", "count": 1 },
    { "lat": 43.681640625, "lon": -79.27734375, "country": "CA", "city": "", "count": 1 }
  ],
  [
    { "lat": 48.779296875, "lon": 2.28515625, "country": "FR", "city": "Paris", "count": 3 },
    { "lat": 48.779296875, "lon": 2.28515625, "country": "FR", "city": "", "count": 8 },
    { "lat": 48.955078125, "lon": 2.28515625, "country": "FR", "city": "Sannois", "count": 1 },
    { "lat": 48.779296875, "lon": 2.28515625, "country": "FR", "city": "Cachan", "count": 3 },
    { "lat": 48.955078125, "lon": 2.63671875, "country": "FR", "city": "Bondy", "count": 1 },
    { "lat": 47.197265625, "lon": -1.58203125, "country": "FR", "city": "Nantes", "count": 4 }
  ],
  [
    { "lat": 48.779296875, "lon": 2.28515625, "country": "FR", "city": "Paris", "count": 3 },
    { "lat": 37.353515625, "lon": -6.15234375, "country": "ES", "city": "Seville", "count": 1 },
    { "lat": 48.779296875, "lon": 2.28515625, "country": "FR", "city": "", "count": 5 },
    { "lat": 48.779296875, "lon": 2.28515625, "country": "FR", "city": "Cachan", "count": 6 },
    { "lat": 47.197265625, "lon": -1.58203125, "country": "FR", "city": "Nantes", "count": 3 },
    { "lat": 46.318359375, "lon": -0.52734375, "country": "FR", "city": "Niort", "count": 2 }
  ],
  [
    { "lat": 48.779296875, "lon": 2.28515625, "country": "FR", "city": "Paris", "count": 3 },
    { "lat": 48.076171875, "lon": -1.58203125, "country": "FR", "city": "Rennes", "count": 1 },
    { "lat": 46.845703125, "lon": -0.52734375, "country": "FR", "city": "Bressuire", "count": 1 },
    { "lat": 48.779296875, "lon": 2.28515625, "country": "FR", "city": "", "count": 3 },
    { "lat": 46.494140625, "lon": -0.87890625, "country": "FR", "city": "Fontenay-le-Comte", "count": 3 },
    { "lat": 48.779296875, "lon": 2.28515625, "country": "FR", "city": "Cachan", "count": 7 },
    { "lat": 50.712890625, "lon": 2.98828125, "country": "FR", "city": "Lambersart", "count": 1 },
    { "lat": 47.197265625, "lon": -1.58203125, "country": "FR", "city": "Nantes", "count": 5 },
    { "lat": 48.955078125, "lon": 2.28515625, "country": "FR", "city": "Houilles", "count": 1 },
    { "lat": 43.681640625, "lon": -79.27734375, "country": "CA", "city": "", "count": 2 }
  ],
  [
    { "lat": 35.947265625, "lon": -95.80078125, "country": "US", "city": "Broken Arrow", "count": 1 },
    { "lat": 48.779296875, "lon": 2.28515625, "country": "FR", "city": "Paris", "count": 5 },
    { "lat": 35.595703125, "lon": 139.74609375, "country": "JP", "city": "Minamiaoyama", "count": 1 },
    { "lat": 48.779296875, "lon": 2.28515625, "country": "FR", "city": "", "count": 4 },
    { "lat": 43.681640625, "lon": 1.58203125, "country": "FR", "city": "Toulouse", "count": 1 },
    { "lat": 50.712890625, "lon": 3.69140625, "country": "BE", "city": "Ath", "count": 3 },
    { "lat": 38.583984375, "lon": -77.16796875, "country": "US", "city": "", "count": 1 },
    { "lat": 48.427734375, "lon": -4.39453125, "country": "FR", "city": "Brest", "count": 1 },
    { "lat": 48.779296875, "lon": 2.28515625, "country": "FR", "city": "Cachan", "count": 5 },
    { "lat": 47.197265625, "lon": -1.58203125, "country": "FR", "city": "Nantes", "count": 3 },
    { "lat": 48.955078125, "lon": 2.28515625, "country": "FR", "city": "Houilles", "count": 2 }
  ],
  [
    { "lat": 43.681640625, "lon": 7.20703125, "country": "FR", "city": "Biot", "count": 1 },
    { "lat": 48.779296875, "lon": 2.28515625, "country": "FR", "city": "Paris", "count": 7 },
    { "lat": 48.779296875, "lon": 2.28515625, "country": "FR", "city": "", "count": 3 },
    { "lat": 43.505859375, "lon": 6.85546875, "country": "FR", "city": "Cannes", "count": 1 },
    { "lat": 53.349609375, "lon": -6.15234375, "country": "IE", "city": "Dublin", "count": 1 },
    { "lat": 48.779296875, "lon": 2.28515625, "country": "FR", "city": "Cachan", "count": 3 },
    { "lat": 47.197265625, "lon": -1.58203125, "country": "FR", "city": "Nantes", "count": 2 },
    { "lat": 43.681640625, "lon": -79.27734375, "country": "CA", "city": "", "count": 1 },
    { "lat": 44.912109375, "lon": -0.52734375, "country": "FR", "city": "Mérignac", "count": 1 }
  ],
  [
    { "lat": 48.779296875, "lon": 2.28515625, "country": "FR", "city": "Paris", "count": 7 },
    { "lat": 48.076171875, "lon": -1.58203125, "country": "FR", "city": "Rennes", "count": 1 },
    { "lat": 46.845703125, "lon": -0.52734375, "country": "FR", "city": "Bressuire", "count": 1 },
    { "lat": 48.779296875, "lon": 2.28515625, "country": "FR", "city": "", "count": 5 },
    { "lat": 48.779296875, "lon": 2.28515625, "country": "FR", "city": "Cachan", "count": 4 },
    { "lat": 47.197265625, "lon": -1.58203125, "country": "FR", "city": "Nantes", "count": 1 },
    { "lat": 48.955078125, "lon": 2.28515625, "country": "FR", "city": "Houilles", "count": 1 },
    { "lat": 43.681640625, "lon": -79.27734375, "country": "CA", "city": "", "count": 2 }
  ],
  [
    { "lat": 48.779296875, "lon": 2.28515625, "country": "FR", "city": "Paris", "count": 3 },
    { "lat": 48.779296875, "lon": 2.28515625, "country": "FR", "city": "", "count": 5 },
    { "lat": 46.494140625, "lon": -0.87890625, "country": "FR", "city": "Fontenay-le-Comte", "count": 2 },
    { "lat": 48.427734375, "lon": -4.39453125, "country": "FR", "city": "Brest", "count": 1 },
    { "lat": 48.779296875, "lon": 2.28515625, "country": "FR", "city": "Cachan", "count": 5 },
    { "lat": 47.197265625, "lon": -1.58203125, "country": "FR", "city": "Nantes", "count": 4 },
    { "lat": 48.955078125, "lon": 2.28515625, "country": "FR", "city": "Houilles", "count": 2 }
  ],
  [
    { "lat": 50.712890625, "lon": 3.33984375, "country": "FR", "city": "Roubaix", "count": 1 },
    { "lat": 48.779296875, "lon": 2.28515625, "country": "FR", "city": "Paris", "count": 8 },
    { "lat": 37.353515625, "lon": -6.15234375, "country": "ES", "city": "Seville", "count": 2 },
    { "lat": 48.779296875, "lon": 2.28515625, "country": "FR", "city": "", "count": 2 },
    { "lat": 43.505859375, "lon": 6.85546875, "country": "FR", "city": "Cannes", "count": 1 },
    { "lat": 46.494140625, "lon": -0.87890625, "country": "FR", "city": "Fontenay-le-Comte", "count": 1 },
    { "lat": 48.779296875, "lon": 2.28515625, "country": "FR", "city": "Cachan", "count": 6 },
    { "lat": 50.712890625, "lon": 2.98828125, "country": "FR", "city": "Lambersart", "count": 1 },
    { "lat": 47.197265625, "lon": -1.58203125, "country": "FR", "city": "Nantes", "count": 1 },
    { "lat": 48.955078125, "lon": 2.28515625, "country": "FR", "city": "Houilles", "count": 1 },
    { "lat": 43.681640625, "lon": -79.27734375, "country": "CA", "city": "", "count": 1 }
  ],
  [
    { "lat": 50.712890625, "lon": 3.33984375, "country": "FR", "city": "Roubaix", "count": 1 },
    { "lat": 48.779296875, "lon": 2.28515625, "country": "FR", "city": "Paris", "count": 3 },
    { "lat": 48.076171875, "lon": -1.58203125, "country": "FR", "city": "Rennes", "count": 1 },
    { "lat": 37.353515625, "lon": -6.15234375, "country": "ES", "city": "Seville", "count": 1 },
    { "lat": 46.845703125, "lon": -0.52734375, "country": "FR", "city": "Bressuire", "count": 1 },
    { "lat": 48.779296875, "lon": 2.28515625, "country": "FR", "city": "", "count": 2 },
    { "lat": 43.681640625, "lon": 1.58203125, "country": "FR", "city": "Toulouse", "count": 1 },
    { "lat": 48.779296875, "lon": 2.28515625, "country": "FR", "city": "Cachan", "count": 2 },
    { "lat": 48.779296875, "lon": 2.28515625, "country": "FR", "city": "Longjumeau", "count": 1 },
    { "lat": 47.197265625, "lon": -1.58203125, "country": "FR", "city": "Nantes", "count": 5 },
    { "lat": 48.955078125, "lon": 2.28515625, "country": "FR", "city": "Houilles", "count": 1 },
    { "lat": 43.681640625, "lon": -79.27734375, "country": "CA", "city": "", "count": 1 }
  ],
  [
    { "lat": 48.779296875, "lon": 2.28515625, "country": "FR", "city": "Paris", "count": 2 },
    { "lat": 37.353515625, "lon": -6.15234375, "country": "ES", "city": "Seville", "count": 1 },
    { "lat": 48.779296875, "lon": 2.28515625, "country": "FR", "city": "", "count": 4 },
    { "lat": 43.681640625, "lon": 1.58203125, "country": "FR", "city": "Toulouse", "count": 1 },
    { "lat": 48.779296875, "lon": 2.28515625, "country": "FR", "city": "Cachan", "count": 6 },
    { "lat": 48.779296875, "lon": 2.28515625, "country": "FR", "city": "Longjumeau", "count": 1 },
    { "lat": 47.197265625, "lon": -1.58203125, "country": "FR", "city": "Nantes", "count": 7 },
    { "lat": 43.681640625, "lon": -79.27734375, "country": "CA", "city": "", "count": 1 },
    { "lat": 44.912109375, "lon": -0.52734375, "country": "FR", "city": "Mérignac", "count": 1 }
  ],
  [
    { "lat": 50.712890625, "lon": 3.33984375, "country": "FR", "city": "Roubaix", "count": 1 },
    { "lat": 48.779296875, "lon": 2.28515625, "country": "FR", "city": "Paris", "count": 4 },
    { "lat": 35.595703125, "lon": 139.74609375, "country": "JP", "city": "Minamiaoyama", "count": 1 },
    { "lat": 48.779296875, "lon": 2.28515625, "country": "FR", "city": "", "count": 2 },
    { "lat": 46.494140625, "lon": -0.87890625, "country": "FR", "city": "Fontenay-le-Comte", "count": 2 },
    { "lat": 50.712890625, "lon": 3.69140625, "country": "BE", "city": "Ath", "count": 1 },
    { "lat": 12.919921875, "lon": 77.51953125, "country": "IN", "city": "Bengaluru", "count": 1 },
    { "lat": 48.779296875, "lon": 2.28515625, "country": "FR", "city": "Cachan", "count": 6 },
    { "lat": 47.197265625, "lon": -1.58203125, "country": "FR", "city": "Nantes", "count": 2 },
    { "lat": 43.681640625, "lon": -79.27734375, "country": "CA", "city": "", "count": 2 }
  ],
  [
    { "lat": 48.779296875, "lon": 2.28515625, "country": "FR", "city": "Paris", "count": 5 },
    { "lat": 6.416015625, "lon": 3.33984375, "country": "NG", "city": "Lagos", "count": 1 },
    { "lat": 37.353515625, "lon": -6.15234375, "country": "ES", "city": "Seville", "count": 1 },
    { "lat": 45.087890625, "lon": 5.80078125, "country": "FR", "city": "Grenoble", "count": 2 },
    { "lat": 46.845703125, "lon": -0.52734375, "country": "FR", "city": "Bressuire", "count": 1 },
    { "lat": 25.048828125, "lon": 56.42578125, "country": "AE", "city": "Kalba", "count": 1 },
    { "lat": 48.779296875, "lon": 2.28515625, "country": "FR", "city": "", "count": 4 },
    { "lat": 48.779296875, "lon": 2.28515625, "country": "FR", "city": "Cachan", "count": 2 },
    { "lat": 47.197265625, "lon": -1.58203125, "country": "FR", "city": "Nantes", "count": 2 },
    { "lat": 48.955078125, "lon": 2.28515625, "country": "FR", "city": "Houilles", "count": 1 },
    { "lat": 43.681640625, "lon": -79.27734375, "country": "CA", "city": "", "count": 4 }
  ],
  [
    { "lat": 48.779296875, "lon": 2.28515625, "country": "FR", "city": "Paris", "count": 1 },
    { "lat": 35.595703125, "lon": 139.74609375, "country": "JP", "city": "Minamiaoyama", "count": 4 },
    { "lat": 25.048828125, "lon": 56.42578125, "country": "AE", "city": "Kalba", "count": 1 },
    { "lat": 48.779296875, "lon": 2.28515625, "country": "FR", "city": "", "count": 4 },
    { "lat": 25.224609375, "lon": 55.37109375, "country": "AE", "city": "Dubai", "count": 1 },
    { "lat": 45.791015625, "lon": 4.74609375, "country": "FR", "city": "Lyon", "count": 1 },
    { "lat": 48.779296875, "lon": 2.28515625, "country": "FR", "city": "Cachan", "count": 6 },
    { "lat": 47.197265625, "lon": -1.58203125, "country": "FR", "city": "Nantes", "count": 4 },
    { "lat": 43.681640625, "lon": -79.27734375, "country": "CA", "city": "", "count": 2 }
  ]
]
