[
  [
    { "lat": 48.779296875, "lon": 2.28515625, "country": "FR", "city": "Paris", "count": 8, "tooltip": "Paris" },
    { "lat": 52.470703125, "lon": -1.58203125, "country": "GB", "city": "Coventry", "count": 1, "tooltip": "Coventry" },
    { "lat": 46.845703125, "lon": -0.52734375, "country": "FR", "city": "Bressuire", "count": 3, "tooltip": "Bressuire" },
    { "lat": 48.779296875, "lon": 2.28515625, "country": "FR", "city": "", "count": 70, "tooltip": "" },
    { "lat": 47.021484375, "lon": 6.50390625, "country": "FR", "city": "Morteau", "count": 1, "tooltip": "Morteau" },
    { "lat": 48.779296875, "lon": 2.28515625, "country": "FR", "city": "Cachan", "count": 41, "tooltip": "Cachan" },
    { "lat": 38.583984375, "lon": -90.52734375, "country": "US", "city": "Fenton", "count": 2, "tooltip": "Fenton" },
    { "lat": 47.197265625, "lon": -1.58203125, "country": "FR", "city": "Nantes", "count": 16, "tooltip": "Nantes" },
    { "lat": 48.955078125, "lon": 2.28515625, "country": "FR", "city": "Asnieres-sur-Seine", "count": 1, "tooltip": "Asnieres-sur-Seine" },
    { "lat": 25.224609375, "lon": 55.37109375, "country": "AE", "city": "Dubai", "count": 1, "tooltip": "Dubai" },
    { "lat": 48.955078125, "lon": 2.63671875, "country": "FR", "city": "Les Pavillons-sous-Bois", "count": 1, "tooltip": "Les Pavillons-sous-Bois" },
    { "lat": 49.482421875, "lon": 1.23046875, "country": "FR", "city": "Rouen", "count": 6, "tooltip": "Rouen" },
    { "lat": 33.662109375, "lon": -7.55859375, "country": "MA", "city": "Casablanca", "count": 1, "tooltip": "Casablanca" },
    { "lat": 43.681640625, "lon": -79.27734375, "country": "CA", "city": "", "count": 2, "tooltip": "" },
    { "lat": 46.318359375, "lon": -0.52734375, "country": "FR", "city": "Niort", "count": 1, "tooltip": "Niort" }
  ],
  [
    { "lat": 50.712890625, "lon": 3.33984375, "country": "FR", "city": "Roubaix", "count": 8, "tooltip": "Roubaix" },
    { "lat": 48.779296875, "lon": 2.28515625, "country": "FR", "city": "Paris", "count": 2, "tooltip": "Paris" },
    { "lat": 46.845703125, "lon": -0.52734375, "country": "FR", "city": "Bressuire", "count": 5, "tooltip": "Bressuire" },
    { "lat": 48.779296875, "lon": 2.28515625, "country": "FR", "city": "", "count": 79, "tooltip": "" },
    { "lat": 48.779296875, "lon": 2.28515625, "country": "FR", "city": "Cachan", "count": 30, "tooltip": "Cachan" },
    { "lat": 45.791015625, "lon": 4.74609375, "country": "FR", "city": "Lyon", "count": 1, "tooltip": "Lyon" },
    { "lat": 50.712890625, "lon": 2.98828125, "country": "FR", "city": "Lambersart", "count": 1, "tooltip": "Lambersart" },
    { "lat": 47.197265625, "lon": -1.58203125, "country": "FR", "city": "Nantes", "count": 9, "tooltip": "Nantes" },
    { "lat": 45.791015625, "lon": 2.98828125, "country": "FR", "city": "Clermont-Ferrand", "count": 1, "tooltip": "Clermont-Ferrand" },
    { "lat": 34.365234375, "lon": 8.26171875, "country": "TN", "city": "Metlaoui", "count": 1, "tooltip": "Metlaoui" },
    { "lat": 37.353515625, "lon": -121.81640625, "country": "US", "city": "Santa Clara", "count": 1, "tooltip": "Santa Clara" },
    { "lat": 43.681640625, "lon": -79.27734375, "country": "CA", "city": "", "count": 8, "tooltip": "" }
  ],
  [
    { "lat": 48.779296875, "lon": 2.28515625, "country": "FR", "city": "Paris", "count": 6, "tooltip": "Paris" },
    { "lat": 46.845703125, "lon": -0.52734375, "country": "FR", "city": "Bressuire", "count": 4, "tooltip": "Bressuire" },
    { "lat": 48.955078125, "lon": 2.28515625, "country": "FR", "city": "Courbevoie", "count": 1, "tooltip": "Courbevoie" },
    { "lat": 48.779296875, "lon": 2.28515625, "country": "FR", "city": "", "count": 84, "tooltip": "" },
    { "lat": 37.705078125, "lon": -97.91015625, "country": "US", "city": "", "count": 1, "tooltip": "" },
    { "lat": 48.779296875, "lon": 2.28515625, "country": "FR", "city": "Cachan", "count": 59, "tooltip": "Cachan" },
    { "lat": 43.505859375, "lon": 6.85546875, "country": "FR", "city": "Fréjus", "count": 8, "tooltip": "Fréjus" },
    { "lat": 45.791015625, "lon": 2.98828125, "country": "FR", "city": "Clermont-Ferrand", "count": 2, "tooltip": "Clermont-Ferrand" },
    { "lat": 47.197265625, "lon": -1.58203125, "country": "FR", "city": "Nantes", "count": 12, "tooltip": "Nantes" },
    { "lat": 50.712890625, "lon": 3.33984375, "country": "FR", "city": "Roubaix", "count": 10, "tooltip": "Roubaix" },
    { "lat": 48.955078125, "lon": 2.63671875, "country": "FR", "city": "Les Pavillons-sous-Bois", "count": 1, "tooltip": "Les Pavillons-sous-Bois" },
    { "lat": 49.482421875, "lon": 1.23046875, "country": "FR", "city": "Rouen", "count": 5, "tooltip": "Rouen" },
    { "lat": 48.076171875, "lon": 0.17578125, "country": "FR", "city": "Coulaines", "count": 4, "tooltip": "Coulaines" },
    { "lat": 59.853515625, "lon": 30.41015625, "country": "RU", "city": "St Petersburg", "count": 1, "tooltip": "St Petersburg" },
    { "lat": 37.353515625, "lon": -121.81640625, "country": "US", "city": "Santa Clara", "count": 1, "tooltip": "Santa Clara" },
    { "lat": 43.681640625, "lon": -79.27734375, "country": "CA", "city": "", "count": 4, "tooltip": "" }
  ],
  [
    { "lat": 48.779296875, "lon": 2.28515625, "country": "FR", "city": "Paris", "count": 4, "tooltip": "Paris" },
    { "lat": 46.845703125, "lon": -0.52734375, "country": "FR", "city": "Bressuire", "count": 4, "tooltip": "Bressuire" },
    { "lat": 48.955078125, "lon": 2.28515625, "country": "FR", "city": "Courbevoie", "count": 1, "tooltip": "Courbevoie" },
    { "lat": 48.779296875, "lon": 2.28515625, "country": "FR", "city": "", "count": 66, "tooltip": "" },
    { "lat": 45.439453125, "lon": -73.65234375, "country": "CA", "city": "Montreal", "count": 1, "tooltip": "Montreal" },
    { "lat": 47.548828125, "lon": -2.63671875, "country": "FR", "city": "Lauzach", "count": 1, "tooltip": "Lauzach" },
    { "lat": 49.482421875, "lon": 1.23046875, "country": "FR", "city": "Rouen", "count": 7, "tooltip": "Rouen" },
    { "lat": 48.779296875, "lon": 2.28515625, "country": "FR", "city": "Cachan", "count": 33, "tooltip": "Cachan" },
    { "lat": 47.197265625, "lon": -1.58203125, "country": "FR", "city": "Nantes", "count": 8, "tooltip": "Nantes" },
    { "lat": 43.681640625, "lon": -79.27734375, "country": "CA", "city": "", "count": 7, "tooltip": "" },
    { "lat": 50.712890625, "lon": 2.98828125, "country": "FR", "city": "Lille", "count": 1, "tooltip": "Lille" }
  ],
  [
    { "lat": 48.779296875, "lon": 2.28515625, "country": "FR", "city": "Paris", "count": 3, "tooltip": "Paris" },
    { "lat": 46.845703125, "lon": -0.52734375, "country": "FR", "city": "Bressuire", "count": 5, "tooltip": "Bressuire" },
    { "lat": 48.779296875, "lon": 2.28515625, "country": "FR", "city": "", "count": 75, "tooltip": "" },
    { "lat": 45.439453125, "lon": 4.39453125, "country": "FR", "city": "Andrezieux-Boutheon", "count": 1, "tooltip": "Andrezieux-Boutheon" },
    { "lat": 20.654296875, "lon": -100.37109375, "country": "MX", "city": "Querétaro City", "count": 1, "tooltip": "Querétaro City" },
    { "lat": 48.779296875, "lon": 2.28515625, "country": "FR", "city": "Cachan", "count": 58, "tooltip": "Cachan" },
    { "lat": 47.197265625, "lon": -1.58203125, "country": "FR", "city": "Nantes", "count": 24, "tooltip": "Nantes" },
    { "lat": 50.712890625, "lon": 2.98828125, "country": "FR", "city": "Lille", "count": 1, "tooltip": "Lille" },
    { "lat": 47.373046875, "lon": 18.80859375, "country": "HU", "city": "Halasztelek", "count": 1, "tooltip": "Halasztelek" },
    { "lat": 50.712890625, "lon": 3.33984375, "country": "FR", "city": "Roubaix", "count": 11, "tooltip": "Roubaix" },
    { "lat": 43.505859375, "lon": 7.20703125, "country": "FR", "city": "Antibes", "count": 1, "tooltip": "Antibes" },
    { "lat": 47.548828125, "lon": -2.63671875, "country": "FR", "city": "Lauzach", "count": 1, "tooltip": "Lauzach" },
    { "lat": 49.482421875, "lon": 1.23046875, "country": "FR", "city": "Rouen", "count": 4, "tooltip": "Rouen" },
    { "lat": 40.341796875, "lon": -3.69140625, "country": "ES", "city": "Madrid", "count": 1, "tooltip": "Madrid" },
    { "lat": 43.681640625, "lon": -79.27734375, "country": "CA", "city": "", "count": 9, "tooltip": "" }
  ],
  [
    { "lat": 48.779296875, "lon": 2.28515625, "country": "FR", "city": "Paris", "count": 2, "tooltip": "Paris" },
    { "lat": 46.845703125, "lon": -0.52734375, "country": "FR", "city": "Bressuire", "count": 4, "tooltip": "Bressuire" },
    { "lat": 48.779296875, "lon": 2.28515625, "country": "FR", "city": "", "count": 93, "tooltip": "" },
    { "lat": 48.779296875, "lon": 2.28515625, "country": "FR", "city": "Cachan", "count": 49, "tooltip": "Cachan" },
    { "lat": 43.505859375, "lon": 6.85546875, "country": "FR", "city": "Fréjus", "count": 9, "tooltip": "Fréjus" },
    { "lat": 47.197265625, "lon": -1.58203125, "country": "FR", "city": "Nantes", "count": 10, "tooltip": "Nantes" },
    { "lat": 50.712890625, "lon": 2.98828125, "country": "FR", "city": "Lille", "count": 4, "tooltip": "Lille" },
    { "lat": 6.240234375, "lon": -75.41015625, "country": "CO", "city": "Medellín", "count": 1, "tooltip": "Medellín" },
    { "lat": 50.712890625, "lon": 3.33984375, "country": "FR", "city": "Roubaix", "count": 11, "tooltip": "Roubaix" },
    { "lat": 52.119140625, "lon": 6.15234375, "country": "NL", "city": "Harfsen", "count": 1, "tooltip": "Harfsen" },
    { "lat": 50.361328125, "lon": 4.39453125, "country": "BE", "city": "Leernes", "count": 2, "tooltip": "Leernes" },
    { "lat": 50.361328125, "lon": 3.69140625, "country": "FR", "city": "Estreux", "count": 1, "tooltip": "Estreux" },
    { "lat": 49.482421875, "lon": 1.23046875, "country": "FR", "city": "Rouen", "count": 9, "tooltip": "Rouen" },
    { "lat": 43.681640625, "lon": -79.27734375, "country": "CA", "city": "", "count": 6, "tooltip": "" },
    { "lat": 47.548828125, "lon": -0.52734375, "country": "FR", "city": "Angers", "count": 1, "tooltip": "Angers" },
    { "lat": 46.318359375, "lon": -0.52734375, "country": "FR", "city": "Niort", "count": 1, "tooltip": "Niort" }
  ],
  [
    { "lat": 48.779296875, "lon": 2.28515625, "country": "FR", "city": "Paris", "count": 10, "tooltip": "Paris" },
    { "lat": 46.845703125, "lon": -0.52734375, "country": "FR", "city": "Bressuire", "count": 5, "tooltip": "Bressuire" },
    { "lat": 48.779296875, "lon": 2.28515625, "country": "FR", "city": "", "count": 81, "tooltip": "" },
    { "lat": 48.779296875, "lon": 2.28515625, "country": "FR", "city": "Cachan", "count": 33, "tooltip": "Cachan" },
    { "lat": 47.197265625, "lon": -1.58203125, "country": "FR", "city": "Nantes", "count": 10, "tooltip": "Nantes" },
    { "lat": 50.712890625, "lon": 2.98828125, "country": "FR", "city": "Lille", "count": 1, "tooltip": "Lille" },
    { "lat": 43.505859375, "lon": 7.20703125, "country": "FR", "city": "Antibes", "count": 1, "tooltip": "Antibes" },
    { "lat": 50.361328125, "lon": 4.39453125, "country": "BE", "city": "Leernes", "count": 1, "tooltip": "Leernes" },
    { "lat": 49.482421875, "lon": 1.23046875, "country": "FR", "city": "Rouen", "count": 8, "tooltip": "Rouen" },
    { "lat": 35.771484375, "lon": 139.74609375, "country": "JP", "city": "Adachi", "count": 1, "tooltip": "Adachi" },
    { "lat": 59.853515625, "lon": 30.41015625, "country": "RU", "city": "St Petersburg", "count": 3, "tooltip": "St Petersburg" },
    { "lat": 43.681640625, "lon": -79.27734375, "country": "CA", "city": "", "count": 6, "tooltip": "" },
    { "lat": 46.318359375, "lon": -0.52734375, "country": "FR", "city": "Niort", "count": 1, "tooltip": "Niort" }
  ],
  [
    { "lat": 48.779296875, "lon": 2.28515625, "country": "FR", "city": "Paris", "count": 3, "tooltip": "Paris" },
    { "lat": 46.845703125, "lon": -0.52734375, "country": "FR", "city": "Bressuire", "count": 3, "tooltip": "Bressuire" },
    { "lat": 43.681640625, "lon": 5.09765625, "country": "FR", "city": "Lambesc", "count": 1, "tooltip": "Lambesc" },
    { "lat": 48.779296875, "lon": 2.28515625, "country": "FR", "city": "", "count": 70, "tooltip": "" },
    { "lat": 37.705078125, "lon": -97.91015625, "country": "US", "city": "", "count": 2, "tooltip": "" },
    { "lat": 48.779296875, "lon": 2.28515625, "country": "FR", "city": "Cachan", "count": 51, "tooltip": "Cachan" },
    { "lat": 45.791015625, "lon": 4.74609375, "country": "FR", "city": "Lyon", "count": 1, "tooltip": "Lyon" },
    { "lat": 47.197265625, "lon": -1.58203125, "country": "FR", "city": "Nantes", "count": 17, "tooltip": "Nantes" },
    { "lat": 50.712890625, "lon": 3.33984375, "country": "FR", "city": "Roubaix", "count": 2, "tooltip": "Roubaix" },
    { "lat": 49.482421875, "lon": 1.23046875, "country": "FR", "city": "Rouen", "count": 7, "tooltip": "Rouen" },
    { "lat": 35.771484375, "lon": 139.74609375, "country": "JP", "city": "Adachi", "count": 1, "tooltip": "Adachi" },
    { "lat": 40.341796875, "lon": -3.69140625, "country": "ES", "city": "Madrid", "count": 1, "tooltip": "Madrid" },
    { "lat": 43.681640625, "lon": -79.27734375, "country": "CA", "city": "", "count": 14, "tooltip": "" }
  ],
  [
    { "lat": 48.779296875, "lon": 2.28515625, "country": "FR", "city": "Paris", "count": 9, "tooltip": "Paris" },
    { "lat": 46.845703125, "lon": -0.52734375, "country": "FR", "city": "Bressuire", "count": 5, "tooltip": "Bressuire" },
    { "lat": 48.779296875, "lon": 2.28515625, "country": "FR", "city": "", "count": 69, "tooltip": "" },
    { "lat": 17.314453125, "lon": 78.57421875, "country": "IN", "city": "Hyderabad", "count": 1, "tooltip": "Hyderabad" },
    { "lat": 45.439453125, "lon": 4.39453125, "country": "FR", "city": "Andrezieux-Boutheon", "count": 1, "tooltip": "Andrezieux-Boutheon" },
    { "lat": 48.779296875, "lon": 2.28515625, "country": "FR", "city": "Cachan", "count": 43, "tooltip": "Cachan" },
    { "lat": 45.791015625, "lon": 2.98828125, "country": "FR", "city": "Clermont-Ferrand", "count": 2, "tooltip": "Clermont-Ferrand" },
    { "lat": 47.197265625, "lon": -1.58203125, "country": "FR", "city": "Nantes", "count": 10, "tooltip": "Nantes" },
    { "lat": 50.712890625, "lon": 2.98828125, "country": "FR", "city": "Lille", "count": 66, "tooltip": "Lille" },
    { "lat": 50.712890625, "lon": 3.33984375, "country": "FR", "city": "Roubaix", "count": 12, "tooltip": "Roubaix" },
    { "lat": 43.505859375, "lon": 7.20703125, "country": "FR", "city": "Antibes", "count": 27, "tooltip": "Antibes" },
    { "lat": 48.779296875, "lon": 2.28515625, "country": "FR", "city": "Orsay", "count": 7, "tooltip": "Orsay" },
    { "lat": 49.482421875, "lon": 1.23046875, "country": "FR", "city": "Rouen", "count": 5, "tooltip": "Rouen" },
    { "lat": 43.681640625, "lon": -79.27734375, "country": "CA", "city": "", "count": 12, "tooltip": "" }
  ],
  [
    { "lat": 48.779296875, "lon": 2.28515625, "country": "FR", "city": "Paris", "count": 5, "tooltip": "Paris" },
    { "lat": 46.845703125, "lon": -0.52734375, "country": "FR", "city": "Bressuire", "count": 5, "tooltip": "Bressuire" },
    { "lat": 48.779296875, "lon": 2.28515625, "country": "FR", "city": "", "count": 62, "tooltip": "" },
    { "lat": 45.439453125, "lon": 4.39453125, "country": "FR", "city": "Andrezieux-Boutheon", "count": 1, "tooltip": "Andrezieux-Boutheon" },
    { "lat": 48.779296875, "lon": 2.28515625, "country": "FR", "city": "Cachan", "count": 31, "tooltip": "Cachan" },
    { "lat": 47.197265625, "lon": -1.58203125, "country": "FR", "city": "Nantes", "count": 9, "tooltip": "Nantes" },
    { "lat": 50.712890625, "lon": 2.98828125, "country": "FR", "city": "Lille", "count": 6, "tooltip": "Lille" },
    { "lat": 43.505859375, "lon": 7.20703125, "country": "FR", "city": "Antibes", "count": 34, "tooltip": "Antibes" },
    { "lat": 48.955078125, "lon": 2.28515625, "country": "FR", "city": "Paris", "count": 1, "tooltip": "Paris" },
    { "lat": 48.779296875, "lon": 2.63671875, "country": "FR", "city": "Joinville-le-Pont", "count": 1, "tooltip": "Joinville-le-Pont" },
    { "lat": 50.009765625, "lon": 36.38671875, "country": "UA", "city": "Kharkiv", "count": 3, "tooltip": "Kharkiv" },
    { "lat": 45.439453125, "lon": -73.65234375, "country": "CA", "city": "Montreal", "count": 1, "tooltip": "Montreal" },
    { "lat": 50.361328125, "lon": 4.39453125, "country": "BE", "city": "Leernes", "count": 1, "tooltip": "Leernes" },
    { "lat": 43.681640625, "lon": -79.27734375, "country": "CA", "city": "", "count": 5, "tooltip": "" }
  ],
  [
    { "lat": 48.779296875, "lon": 2.28515625, "country": "FR", "city": "Paris", "count": 9, "tooltip": "Paris" },
    { "lat": 46.845703125, "lon": -0.52734375, "country": "FR", "city": "Bressuire", "count": 4, "tooltip": "Bressuire" },
    { "lat": 51.240234375, "lon": 9.31640625, "country": "DE", "city": "", "count": 1, "tooltip": "" },
    { "lat": 48.779296875, "lon": 2.28515625, "country": "FR", "city": "", "count": 80, "tooltip": "" },
    { "lat": 47.021484375, "lon": 6.50390625, "country": "FR", "city": "Morteau", "count": 1, "tooltip": "Morteau" },
    { "lat": 48.779296875, "lon": 2.28515625, "country": "FR", "city": "Cachan", "count": 65, "tooltip": "Cachan" },
    { "lat": 45.791015625, "lon": 4.74609375, "country": "FR", "city": "Lyon", "count": 1, "tooltip": "Lyon" },
    { "lat": 45.791015625, "lon": 2.98828125, "country": "FR", "city": "Clermont-Ferrand", "count": 1, "tooltip": "Clermont-Ferrand" },
    { "lat": 47.197265625, "lon": -1.58203125, "country": "FR", "city": "Nantes", "count": 9, "tooltip": "Nantes" },
    { "lat": 47.373046875, "lon": 18.80859375, "country": "HU", "city": "Halasztelek", "count": 1, "tooltip": "Halasztelek" },
    { "lat": 50.712890625, "lon": 2.98828125, "country": "FR", "city": "Lille", "count": 1, "tooltip": "Lille" },
    { "lat": 50.712890625, "lon": 3.33984375, "country": "FR", "city": "Roubaix", "count": 3, "tooltip": "Roubaix" },
    { "lat": 48.955078125, "lon": 2.28515625, "country": "FR", "city": "Paris", "count": 3, "tooltip": "Paris" },
    { "lat": 45.966796875, "lon": 6.15234375, "country": "FR", "city": "Epagny", "count": 1, "tooltip": "Epagny" },
    { "lat": 48.779296875, "lon": 2.63671875, "country": "FR", "city": "Joinville-le-Pont", "count": 1, "tooltip": "Joinville-le-Pont" },
    { "lat": 40.341796875, "lon": -3.69140625, "country": "ES", "city": "Madrid", "count": 1, "tooltip": "Madrid" },
    { "lat": 43.681640625, "lon": -79.27734375, "country": "CA", "city": "", "count": 17, "tooltip": "" }
  ],
  [
    { "lat": 50.712890625, "lon": 3.33984375, "country": "FR", "city": "Roubaix", "count": 8, "tooltip": "Roubaix" },
    { "lat": 48.779296875, "lon": 2.28515625, "country": "FR", "city": "Paris", "count": 7, "tooltip": "Paris" },
    { "lat": 43.505859375, "lon": 7.20703125, "country": "FR", "city": "Antibes", "count": 1, "tooltip": "Antibes" },
    { "lat": 46.845703125, "lon": -0.52734375, "country": "FR", "city": "Bressuire", "count": 3, "tooltip": "Bressuire" },
    { "lat": 48.779296875, "lon": 2.28515625, "country": "FR", "city": "", "count": 75, "tooltip": "" },
    { "lat": 43.681640625, "lon": 1.58203125, "country": "FR", "city": "Toulouse", "count": 1, "tooltip": "Toulouse" },
    { "lat": 20.654296875, "lon": -100.37109375, "country": "MX", "city": "Querétaro City", "count": 1, "tooltip": "Querétaro City" },
    { "lat": 59.853515625, "lon": 30.41015625, "country": "RU", "city": "St Petersburg", "count": 1, "tooltip": "St Petersburg" },
    { "lat": 48.779296875, "lon": 2.28515625, "country": "FR", "city": "Cachan", "count": 38, "tooltip": "Cachan" },
    { "lat": 47.197265625, "lon": -1.58203125, "country": "FR", "city": "Nantes", "count": 13, "tooltip": "Nantes" },
    { "lat": 43.681640625, "lon": -79.27734375, "country": "CA", "city": "", "count": 10, "tooltip": "" },
    { "lat": 48.955078125, "lon": 2.28515625, "country": "FR", "city": "Asnieres-sur-Seine", "count": 1, "tooltip": "Asnieres-sur-Seine" }
  ],
  [
    { "lat": 48.779296875, "lon": 2.28515625, "country": "FR", "city": "Paris", "count": 3, "tooltip": "Paris" },
    { "lat": 46.845703125, "lon": -0.52734375, "country": "FR", "city": "Bressuire", "count": 4, "tooltip": "Bressuire" },
    { "lat": 43.681640625, "lon": 5.09765625, "country": "FR", "city": "Lambesc", "count": 1, "tooltip": "Lambesc" },
    { "lat": 48.779296875, "lon": 2.28515625, "country": "FR", "city": "", "count": 44, "tooltip": "" },
    { "lat": 57.216796875, "lon": 25.13671875, "country": "LV", "city": "Cēsis", "count": 49, "tooltip": "Cēsis" },
    { "lat": 48.779296875, "lon": 2.28515625, "country": "FR", "city": "Cachan", "count": 31, "tooltip": "Cachan" },
    { "lat": 45.791015625, "lon": 4.74609375, "country": "FR", "city": "Lyon", "count": 3, "tooltip": "Lyon" },
    { "lat": 45.791015625, "lon": 2.98828125, "country": "FR", "city": "Clermont-Ferrand", "count": 2, "tooltip": "Clermont-Ferrand" },
    { "lat": 47.197265625, "lon": -1.58203125, "country": "FR", "city": "Nantes", "count": 7, "tooltip": "Nantes" },
    { "lat": 50.712890625, "lon": 2.98828125, "country": "FR", "city": "Lille", "count": 12, "tooltip": "Lille" },
    { "lat": 48.779296875, "lon": 2.63671875, "country": "FR", "city": "Joinville-le-Pont", "count": 1, "tooltip": "Joinville-le-Pont" },
    { "lat": 50.009765625, "lon": 36.38671875, "country": "UA", "city": "Kharkiv", "count": 1, "tooltip": "Kharkiv" },
    { "lat": 48.955078125, "lon": 2.63671875, "country": "FR", "city": "Les Pavillons-sous-Bois", "count": 1, "tooltip": "Les Pavillons-sous-Bois" },
    { "lat": 43.681640625, "lon": -79.27734375, "country": "CA", "city": "", "count": 4, "tooltip": "" },
    { "lat": 46.318359375, "lon": -0.52734375, "country": "FR", "city": "Niort", "count": 1, "tooltip": "Niort" }
  ],
  [
    { "lat": 50.712890625, "lon": 3.33984375, "country": "FR", "city": "Roubaix", "count": 3, "tooltip": "Roubaix" },
    { "lat": 48.779296875, "lon": 2.28515625, "country": "FR", "city": "Paris", "count": 4, "tooltip": "Paris" },
    { "lat": 46.845703125, "lon": -0.52734375, "country": "FR", "city": "Bressuire", "count": 5, "tooltip": "Bressuire" },
    { "lat": 48.779296875, "lon": 2.28515625, "country": "FR", "city": "", "count": 77, "tooltip": "" },
    { "lat": 57.216796875, "lon": 25.13671875, "country": "LV", "city": "Cēsis", "count": 3, "tooltip": "Cēsis" },
    { "lat": 49.482421875, "lon": 1.23046875, "country": "FR", "city": "Rouen", "count": 1, "tooltip": "Rouen" },
    { "lat": 48.779296875, "lon": 2.28515625, "country": "FR", "city": "Cachan", "count": 56, "tooltip": "Cachan" },
    { "lat": 34.365234375, "lon": 8.26171875, "country": "TN", "city": "Metlaoui", "count": 3, "tooltip": "Metlaoui" },
    { "lat": 47.197265625, "lon": -1.58203125, "country": "FR", "city": "Nantes", "count": 13, "tooltip": "Nantes" },
    { "lat": 43.681640625, "lon": -79.27734375, "country": "CA", "city": "", "count": 30, "tooltip": "" }
  ],
  [
    { "lat": 50.712890625, "lon": 3.33984375, "country": "FR", "city": "Roubaix", "count": 12, "tooltip": "Roubaix" },
    { "lat": 48.779296875, "lon": 2.28515625, "country": "FR", "city": "Paris", "count": 2, "tooltip": "Paris" },
    { "lat": 46.845703125, "lon": -0.52734375, "country": "FR", "city": "Bressuire", "count": 4, "tooltip": "Bressuire" },
    { "lat": 48.779296875, "lon": 2.63671875, "country": "FR", "city": "Joinville-le-Pont", "count": 1, "tooltip": "Joinville-le-Pont" },
    { "lat": 48.955078125, "lon": 2.28515625, "country": "FR", "city": "Courbevoie", "count": 1, "tooltip": "Courbevoie" },
    { "lat": 48.779296875, "lon": 2.28515625, "country": "FR", "city": "", "count": 82, "tooltip": "" },
    { "lat": 50.361328125, "lon": 3.69140625, "country": "FR", "city": "Estreux", "count": 1, "tooltip": "Estreux" },
    { "lat": 49.482421875, "lon": 1.23046875, "country": "FR", "city": "Rouen", "count": 1, "tooltip": "Rouen" },
    { "lat": 48.076171875, "lon": 0.17578125, "country": "FR", "city": "Coulaines", "count": 1, "tooltip": "Coulaines" },
    { "lat": 48.779296875, "lon": 2.28515625, "country": "FR", "city": "Cachan", "count": 40, "tooltip": "Cachan" },
    { "lat": 47.197265625, "lon": -1.58203125, "country": "FR", "city": "Nantes", "count": 10, "tooltip": "Nantes" },
    { "lat": 43.681640625, "lon": -79.27734375, "country": "CA", "city": "", "count": 9, "tooltip": "" }
  ],
  [
    { "lat": 48.779296875, "lon": 2.28515625, "country": "FR", "city": "Paris", "count": 4, "tooltip": "Paris" },
    { "lat": 46.845703125, "lon": -0.52734375, "country": "FR", "city": "Bressuire", "count": 4, "tooltip": "Bressuire" },
    { "lat": 48.779296875, "lon": 2.28515625, "country": "FR", "city": "", "count": 53, "tooltip": "" },
    { "lat": 50.361328125, "lon": 4.39453125, "country": "BE", "city": "Leernes", "count": 1, "tooltip": "Leernes" },
    { "lat": 50.361328125, "lon": 3.69140625, "country": "FR", "city": "Estreux", "count": 2, "tooltip": "Estreux" },
    { "lat": 49.482421875, "lon": 1.23046875, "country": "FR", "city": "Rouen", "count": 1, "tooltip": "Rouen" },
    { "lat": 20.654296875, "lon": -100.37109375, "country": "MX", "city": "Querétaro City", "count": 1, "tooltip": "Querétaro City" },
    { "lat": 48.779296875, "lon": 2.28515625, "country": "FR", "city": "Cachan", "count": 35, "tooltip": "Cachan" },
    { "lat": 47.197265625, "lon": -1.58203125, "country": "FR", "city": "Nantes", "count": 12, "tooltip": "Nantes" },
    { "lat": 43.681640625, "lon": -79.27734375, "country": "CA", "city": "", "count": 2, "tooltip": "" },
    { "lat": 47.373046875, "lon": 18.80859375, "country": "HU", "city": "Halasztelek", "count": 1, "tooltip": "Halasztelek" }
  ],
  [
    { "lat": 48.779296875, "lon": 2.28515625, "country": "FR", "city": "Paris", "count": 2, "tooltip": "Paris" },
    { "lat": 37.353515625, "lon": -6.15234375, "country": "ES", "city": "Seville", "count": 2, "tooltip": "Seville" },
    { "lat": 46.845703125, "lon": -0.52734375, "country": "FR", "city": "Bressuire", "count": 4, "tooltip": "Bressuire" },
    { "lat": 48.779296875, "lon": 2.28515625, "country": "FR", "city": "", "count": 77, "tooltip": "" },
    { "lat": 20.654296875, "lon": -100.37109375, "country": "MX", "city": "Querétaro City", "count": 1, "tooltip": "Querétaro City" },
    { "lat": 48.779296875, "lon": 2.28515625, "country": "FR", "city": "Cachan", "count": 46, "tooltip": "Cachan" },
    { "lat": 47.197265625, "lon": -1.58203125, "country": "FR", "city": "Nantes", "count": 9, "tooltip": "Nantes" },
    { "lat": 50.712890625, "lon": 3.33984375, "country": "FR", "city": "Roubaix", "count": 2, "tooltip": "Roubaix" },
    { "lat": 52.119140625, "lon": 6.15234375, "country": "NL", "city": "Harfsen", "count": 1, "tooltip": "Harfsen" },
    { "lat": 25.224609375, "lon": 55.37109375, "country": "AE", "city": "Dubai", "count": 8, "tooltip": "Dubai" },
    { "lat": 40.517578125, "lon": -74.35546875, "country": "US", "city": "Piscataway", "count": 1, "tooltip": "Piscataway" },
    { "lat": 49.482421875, "lon": 1.23046875, "country": "FR", "city": "Rouen", "count": 1, "tooltip": "Rouen" },
    { "lat": 40.341796875, "lon": -3.69140625, "country": "ES", "city": "Madrid", "count": 1, "tooltip": "Madrid" },
    { "lat": 43.681640625, "lon": -79.27734375, "country": "CA", "city": "", "count": 36, "tooltip": "" },
    { "lat": 46.318359375, "lon": -0.52734375, "country": "FR", "city": "Niort", "count": 2, "tooltip": "Niort" }
  ],
  [
    { "lat": 48.779296875, "lon": 2.28515625, "country": "FR", "city": "Paris", "count": 3, "tooltip": "Paris" },
    { "lat": 37.353515625, "lon": -6.15234375, "country": "ES", "city": "Seville", "count": 1, "tooltip": "Seville" },
    { "lat": 46.845703125, "lon": -0.52734375, "country": "FR", "city": "Bressuire", "count": 5, "tooltip": "Bressuire" },
    { "lat": 48.779296875, "lon": 2.28515625, "country": "FR", "city": "", "count": 84, "tooltip": "" },
    { "lat": 48.779296875, "lon": 2.28515625, "country": "FR", "city": "Cachan", "count": 45, "tooltip": "Cachan" },
    { "lat": 45.791015625, "lon": 4.74609375, "country": "FR", "city": "Lyon", "count": 2, "tooltip": "Lyon" },
    { "lat": 47.197265625, "lon": -1.58203125, "country": "FR", "city": "Nantes", "count": 16, "tooltip": "Nantes" },
    { "lat": 45.791015625, "lon": 2.98828125, "country": "FR", "city": "Clermont-Ferrand", "count": 1, "tooltip": "Clermont-Ferrand" },
    { "lat": 50.712890625, "lon": 2.98828125, "country": "FR", "city": "Lille", "count": 20, "tooltip": "Lille" },
    { "lat": 6.240234375, "lon": -75.41015625, "country": "CO", "city": "Medellín", "count": 1, "tooltip": "Medellín" },
    { "lat": 50.712890625, "lon": 3.33984375, "country": "FR", "city": "Roubaix", "count": 13, "tooltip": "Roubaix" },
    { "lat": 48.955078125, "lon": 2.28515625, "country": "FR", "city": "Pantin", "count": 1, "tooltip": "Pantin" },
    { "lat": 25.224609375, "lon": 55.37109375, "country": "AE", "city": "Dubai", "count": 1, "tooltip": "Dubai" },
    { "lat": 43.330078125, "lon": 5.44921875, "country": "FR", "city": "Aubagne", "count": 6, "tooltip": "Aubagne" },
    { "lat": 49.482421875, "lon": 1.23046875, "country": "FR", "city": "Rouen", "count": 1, "tooltip": "Rouen" },
    { "lat": 50.712890625, "lon": 2.98828125, "country": "FR", "city": "Lambersart", "count": 1, "tooltip": "Lambersart" },
    { "lat": 43.681640625, "lon": -79.27734375, "country": "CA", "city": "", "count": 7, "tooltip": "" },
    { "lat": 46.318359375, "lon": -0.52734375, "country": "FR", "city": "Niort", "count": 1, "tooltip": "Niort" }
  ],
  [
    { "lat": 48.779296875, "lon": 2.28515625, "country": "FR", "city": "Paris", "count": 4, "tooltip": "Paris" },
    { "lat": 37.353515625, "lon": -6.15234375, "country": "ES", "city": "Seville", "count": 3, "tooltip": "Seville" },
    { "lat": 46.845703125, "lon": -0.52734375, "country": "FR", "city": "Bressuire", "count": 3, "tooltip": "Bressuire" },
    { "lat": 48.779296875, "lon": 2.28515625, "country": "FR", "city": "", "count": 79, "tooltip": "" },
    { "lat": 50.537109375, "lon": 2.98828125, "country": "FR", "city": "Gondecourt", "count": 1, "tooltip": "Gondecourt" },
    { "lat": 51.591796875, "lon": -0.17578125, "country": "GB", "city": "London", "count": 1, "tooltip": "London" },
    { "lat": 48.779296875, "lon": 2.28515625, "country": "FR", "city": "Cachan", "count": 51, "tooltip": "Cachan" },
    { "lat": 47.197265625, "lon": -1.58203125, "country": "FR", "city": "Nantes", "count": 23, "tooltip": "Nantes" },
    { "lat": 50.712890625, "lon": 2.98828125, "country": "FR", "city": "Lille", "count": 39, "tooltip": "Lille" },
    { "lat": 32.783203125, "lon": -96.85546875, "country": "US", "city": "Dallas", "count": 1, "tooltip": "Dallas" },
    { "lat": 50.712890625, "lon": 3.33984375, "country": "FR", "city": "Roubaix", "count": 1, "tooltip": "Roubaix" },
    { "lat": 48.955078125, "lon": 2.28515625, "country": "FR", "city": "Pantin", "count": 1, "tooltip": "Pantin" },
    { "lat": 25.224609375, "lon": 55.37109375, "country": "AE", "city": "Dubai", "count": 2, "tooltip": "Dubai" },
    { "lat": 50.361328125, "lon": 4.39453125, "country": "BE", "city": "Leernes", "count": 1, "tooltip": "Leernes" },
    { "lat": 45.439453125, "lon": -73.65234375, "country": "CA", "city": "Montreal", "count": 1, "tooltip": "Montreal" },
    { "lat": 49.482421875, "lon": 1.23046875, "country": "FR", "city": "Rouen", "count": 1, "tooltip": "Rouen" },
    { "lat": 50.361328125, "lon": 3.69140625, "country": "FR", "city": "Estreux", "count": 1, "tooltip": "Estreux" },
    { "lat": 35.771484375, "lon": 139.74609375, "country": "JP", "city": "Adachi", "count": 1, "tooltip": "Adachi" },
    { "lat": 50.712890625, "lon": 2.98828125, "country": "FR", "city": "Lambersart", "count": 1, "tooltip": "Lambersart" },
    { "lat": 43.681640625, "lon": -79.27734375, "country": "CA", "city": "", "count": 4, "tooltip": "" }
  ],
  [
    { "lat": 50.712890625, "lon": 3.33984375, "country": "FR", "city": "Roubaix", "count": 2, "tooltip": "Roubaix" },
    { "lat": 48.779296875, "lon": 2.28515625, "country": "FR", "city": "Paris", "count": 1, "tooltip": "Paris" },
    { "lat": 46.845703125, "lon": -0.52734375, "country": "FR", "city": "Bressuire", "count": 4, "tooltip": "Bressuire" },
    { "lat": 43.681640625, "lon": 5.09765625, "country": "FR", "city": "Lambesc", "count": 3, "tooltip": "Lambesc" },
    { "lat": 48.779296875, "lon": 2.28515625, "country": "FR", "city": "", "count": 116, "tooltip": "" },
    { "lat": 25.224609375, "lon": 55.37109375, "country": "AE", "city": "Dubai", "count": 1, "tooltip": "Dubai" },
    { "lat": 17.314453125, "lon": 78.57421875, "country": "IN", "city": "Hyderabad", "count": 1, "tooltip": "Hyderabad" },
    { "lat": 49.482421875, "lon": 1.23046875, "country": "FR", "city": "Rouen", "count": 1, "tooltip": "Rouen" },
    { "lat": 48.779296875, "lon": 2.28515625, "country": "FR", "city": "Cachan", "count": 49, "tooltip": "Cachan" },
    { "lat": 47.197265625, "lon": -1.58203125, "country": "FR", "city": "Nantes", "count": 14, "tooltip": "Nantes" },
    { "lat": 43.681640625, "lon": -79.27734375, "country": "CA", "city": "", "count": 25, "tooltip": "" },
    { "lat": 50.712890625, "lon": 2.98828125, "country": "FR", "city": "Lille", "count": 4, "tooltip": "Lille" }
  ],
  [
    { "lat": 35.068359375, "lon": -81.03515625, "country": "US", "city": "Fort Mill", "count": 1, "tooltip": "Fort Mill" },
    { "lat": 48.779296875, "lon": 2.28515625, "country": "FR", "city": "Paris", "count": 3, "tooltip": "Paris" },
    { "lat": 52.470703125, "lon": -1.58203125, "country": "GB", "city": "Coventry", "count": 1, "tooltip": "Coventry" },
    { "lat": 46.845703125, "lon": -0.52734375, "country": "FR", "city": "Bressuire", "count": 5, "tooltip": "Bressuire" },
    { "lat": 48.779296875, "lon": 2.28515625, "country": "FR", "city": "", "count": 80, "tooltip": "" },
    { "lat": 48.779296875, "lon": 2.28515625, "country": "FR", "city": "Cachan", "count": 42, "tooltip": "Cachan" },
    { "lat": 45.791015625, "lon": 4.74609375, "country": "FR", "city": "Lyon", "count": 1, "tooltip": "Lyon" },
    { "lat": 47.197265625, "lon": -1.58203125, "country": "FR", "city": "Nantes", "count": 9, "tooltip": "Nantes" },
    { "lat": 50.712890625, "lon": 2.98828125, "country": "FR", "city": "Lille", "count": 16, "tooltip": "Lille" },
    { "lat": 32.783203125, "lon": -96.85546875, "country": "US", "city": "Dallas", "count": 1, "tooltip": "Dallas" },
    { "lat": 50.712890625, "lon": 3.33984375, "country": "FR", "city": "Roubaix", "count": 2, "tooltip": "Roubaix" },
    { "lat": 25.224609375, "lon": 55.37109375, "country": "AE", "city": "Dubai", "count": 2, "tooltip": "Dubai" },
    { "lat": 49.482421875, "lon": 1.23046875, "country": "FR", "city": "Rouen", "count": 1, "tooltip": "Rouen" },
    { "lat": 47.548828125, "lon": -0.52734375, "country": "FR", "city": "Angers", "count": 1, "tooltip": "Angers" },
    { "lat": 43.681640625, "lon": -79.27734375, "country": "CA", "city": "", "count": 6, "tooltip": "" }
  ],
  [
    { "lat": 48.779296875, "lon": 2.28515625, "country": "FR", "city": "Paris", "count": 7, "tooltip": "Paris" },
    { "lat": 46.845703125, "lon": -0.52734375, "country": "FR", "city": "Bressuire", "count": 4, "tooltip": "Bressuire" },
    { "lat": 48.955078125, "lon": 2.28515625, "country": "FR", "city": "Courbevoie", "count": 1, "tooltip": "Courbevoie" },
    { "lat": 51.240234375, "lon": 9.31640625, "country": "DE", "city": "", "count": 1, "tooltip": "" },
    { "lat": 48.779296875, "lon": 2.28515625, "country": "FR", "city": "", "count": 63, "tooltip": "" },
    { "lat": 48.779296875, "lon": 2.28515625, "country": "FR", "city": "Cachan", "count": 50, "tooltip": "Cachan" },
    { "lat": 47.197265625, "lon": -1.58203125, "country": "FR", "city": "Nantes", "count": 9, "tooltip": "Nantes" },
    { "lat": 50.712890625, "lon": 3.33984375, "country": "FR", "city": "Roubaix", "count": 1, "tooltip": "Roubaix" },
    { "lat": 50.009765625, "lon": 36.38671875, "country": "UA", "city": "Kharkiv", "count": 1, "tooltip": "Kharkiv" },
    { "lat": 25.224609375, "lon": 55.37109375, "country": "AE", "city": "Dubai", "count": 1, "tooltip": "Dubai" },
    { "lat": 48.955078125, "lon": 2.63671875, "country": "FR", "city": "Les Pavillons-sous-Bois", "count": 1, "tooltip": "Les Pavillons-sous-Bois" },
    { "lat": 50.361328125, "lon": 4.39453125, "country": "BE", "city": "Leernes", "count": 1, "tooltip": "Leernes" },
    { "lat": 49.482421875, "lon": 1.23046875, "country": "FR", "city": "Rouen", "count": 1, "tooltip": "Rouen" },
    { "lat": 33.662109375, "lon": -7.55859375, "country": "MA", "city": "Casablanca", "count": 1, "tooltip": "Casablanca" },
    { "lat": 50.712890625, "lon": 2.98828125, "country": "FR", "city": "Lambersart", "count": 1, "tooltip": "Lambersart" },
    { "lat": 43.681640625, "lon": -79.27734375, "country": "CA", "city": "", "count": 3, "tooltip": "" }
  ]
]
